City_ID,City,Lat,Lng,Max Temp,Humidity,Cloudiness,Wind Speed,Country,Date
0,avera,33.194,-82.5271,10.73,93,73,2.23,US,1670048720
1,bandarbeyla,9.4942,50.8122,26.93,61,6,9.18,SO,1670048721
2,ushuaia,-54.8,-68.3,4.81,65,75,2.06,AR,1670048721
3,bluff,-46.6,168.3333,12.85,77,100,11.84,NZ,1670048722
4,lebu,-37.6167,-73.65,12.97,93,88,2.68,CL,1670048723
5,nouadhibou,20.931,-17.0347,15.99,94,40,6.17,MR,1670048724
6,gopalpur,19.2667,84.9167,26.93,64,7,3.24,IN,1670048724
7,petropavlovsk-kamchatskiy,53.0452,158.6483,-13.67,85,40,1.0,RU,1670048725
8,clyde river,70.4692,-68.5914,-19.87,77,100,4.12,CA,1670048726
9,lujan,-34.5703,-59.105,18.86,91,6,2.2,AR,1670048729
10,nara,34.6851,135.8049,14.16,34,21,1.93,JP,1670048730
11,port elizabeth,-33.918,25.5701,20.61,76,75,7.72,ZA,1670048731
12,nivala,63.9167,24.9667,-6.29,98,84,1.58,FI,1670048590
13,kralendijk,12.15,-68.2667,23.99,88,40,5.14,BQ,1670048731
14,cape town,-33.9258,18.4232,18.95,60,20,6.69,ZA,1670048732
15,saskylakh,71.9167,114.0833,-18.53,97,100,4.54,RU,1670048732
16,vaini,-21.2,-175.2,28.09,83,40,3.6,TO,1670048733
17,mataura,-46.1927,168.8643,14.26,67,96,2.25,NZ,1670048733
18,hilo,19.7297,-155.09,24.04,96,100,1.54,US,1670048634
19,sao filipe,14.8961,-24.4956,22.04,63,100,2.34,CV,1670048734
20,komsomolskiy,40.4272,71.7189,3.4,75,100,0.0,UZ,1670048734
21,biritiba-mirim,-23.5698,-46.0407,20.88,95,100,1.03,BR,1670048735
22,severo-kurilsk,50.6789,156.125,-3.88,71,88,10.63,RU,1670048639
23,hofn,64.2539,-15.2082,4.9,66,5,5.11,IS,1670048736
24,kodiak,57.79,-152.4072,-6.27,79,0,2.06,US,1670048736
25,ukiah,39.1502,-123.2078,4.8,88,0,0.0,US,1670048737
26,kapaa,22.0752,-159.319,26.18,89,100,3.09,US,1670048591
27,rikitea,-23.1203,-134.9692,23.61,71,61,6.06,PF,1670048697
28,constitucion,-35.3333,-72.4167,13.21,78,1,3.34,CL,1670048696
29,lorengau,-2.0226,147.2712,28.24,74,100,1.77,PG,1670048738
30,san patricio,28.017,-97.5169,19.4,95,63,1.78,US,1670048738
31,barpali,21.2,83.5833,27.01,40,0,1.12,IN,1670048739
32,hobyo,5.3505,48.5268,27.7,64,69,7.92,SO,1670048740
33,kaeo,-35.1,173.7833,17.51,68,14,1.83,NZ,1670048740
34,dikson,73.5069,80.5464,-16.52,98,98,1.96,RU,1670048741
35,mountain home,43.133,-115.6912,-5.29,68,0,5.66,US,1670048741
36,butaritari,3.0707,172.7902,27.6,72,38,7.71,KI,1670048741
37,east london,-33.0153,27.9116,22.52,49,20,9.77,ZA,1670048742
38,leshukonskoye,64.8989,45.7622,-13.06,98,100,1.61,RU,1670048742
39,cabo san lucas,22.8909,-109.9124,24.17,83,14,2.27,MX,1670048470
40,saint-philippe,-21.3585,55.7679,28.77,73,47,2.76,RE,1670048743
41,klyuchi,52.2667,79.1667,-17.79,89,33,1.69,RU,1670048743
42,mar del plata,-38.0023,-57.5575,14.37,93,0,4.02,AR,1670048505
43,atuona,-9.8,-139.0333,25.7,76,35,8.86,PF,1670048502
44,chase,50.8165,-119.6857,-10.51,99,97,0.89,CA,1670048744
45,uglich,57.5275,38.3317,-12.05,91,100,3.16,RU,1670048745
46,cabrero,-37.0333,-72.4,12.88,68,26,2.62,CL,1670048745
47,kyabe,9.4515,18.9449,25.89,29,91,1.48,TD,1670048745
48,adre,13.4667,22.2,20.89,23,1,7.75,TD,1670048746
49,hobart,-42.8794,147.3294,28.48,55,0,10.29,AU,1670048746
50,busselton,-33.65,115.3333,25.51,48,89,7.12,AU,1670048747
51,ahipara,-35.1667,173.1667,16.8,63,3,3.51,NZ,1670048747
52,kaitangata,-46.2817,169.8464,15.74,58,100,2.02,NZ,1670048748
53,mungeli,22.0667,81.6833,26.58,40,1,1.05,IN,1670048748
54,northam,51.0333,-4.2167,6.33,74,59,7.74,GB,1670048749
55,pisco,-13.7,-76.2167,17.03,88,2,1.54,PE,1670048705
56,bredasdorp,-34.5322,20.0403,15.79,57,98,3.0,ZA,1670048749
57,koutsouras,35.0339,25.9469,15.62,81,99,2.17,GR,1670048750
58,koson,39.0375,65.585,4.18,28,10,1.58,UZ,1670048750
59,arica,-18.475,-70.3042,16.13,67,0,2.06,CL,1670048569
60,qaanaaq,77.484,-69.3632,-4.23,68,100,6.55,GL,1670048751
61,upernavik,72.7868,-56.1549,1.92,79,100,17.08,GL,1670048751
62,nioro,13.35,-15.75,18.57,55,91,2.06,GM,1670048752
63,joensuu,62.6012,29.7632,-6.73,93,75,2.06,FI,1670048752
64,taoudenni,22.6783,-3.9836,18.09,25,0,3.35,ML,1670048753
65,port alfred,-33.5906,26.891,20.1,67,19,4.47,ZA,1670048753
66,livadiya,42.8692,132.6764,-0.04,46,81,10.38,RU,1670048754
67,poli,-3.3333,36.8,20.15,78,40,0.0,TZ,1670048754
68,hasaki,35.7333,140.8333,14.05,63,88,1.53,JP,1670048754
69,arraial do cabo,-22.9661,-42.0278,23.06,91,100,11.11,BR,1670048755
70,albany,42.6001,-73.9662,4.8,60,100,0.45,US,1670048470
71,castro,-24.7911,-50.0119,16.38,94,84,1.53,BR,1670048755
72,bilokurakyne,49.5341,38.7307,-4.21,76,96,6.96,UA,1670048756
73,tasiilaq,65.6145,-37.6368,1.09,82,100,8.39,GL,1670048757
74,khurba,50.4072,136.8819,-14.61,89,100,2.2,RU,1670048757
75,san ramon,37.7799,-121.978,7.93,84,0,2.06,US,1670048592
76,usinsk,65.9939,57.5281,-15.12,97,98,3.83,RU,1670048758
77,barrow,71.2906,-156.7887,-0.99,93,100,10.8,US,1670048758
78,shestakovo,56.4915,103.96,-17.13,89,100,3.94,RU,1670048759
79,tshikapa,-6.4167,20.8,22.23,86,76,0.55,CD,1670048761
80,beloha,-25.1667,45.05,29.09,56,99,1.71,MG,1670048762
81,veraval,20.9,70.3667,27.17,43,74,1.96,IN,1670048762
82,bubaque,11.2833,-15.8333,26.19,63,74,4.26,GW,1670048763
83,puerto ayora,-0.7393,-90.3518,19.75,95,83,1.34,EC,1670048763
84,dukat,62.55,155.55,-23.86,91,88,2.68,RU,1670048764
85,alice springs,-23.7,133.8833,35.75,9,2,7.2,AU,1670048739
86,ponta do sol,32.6667,-17.1,16.35,63,12,3.86,PT,1670048711
87,mana,5.6592,-53.7767,23.98,91,98,2.97,GF,1670048765
88,ampanihy,-24.7,44.75,29.91,44,99,2.37,MG,1670048766
89,kholodnyy,62.7167,147.95,-31.64,100,100,1.08,RU,1670048766
90,kiruna,67.8557,20.2251,-5.49,100,100,0.51,SE,1670048767
91,vada,51.97,5.6667,2.26,83,100,3.6,NL,1670048607
92,zhangjiakou,40.81,114.8794,-6.37,20,13,6.6,CN,1670048768
93,pevek,69.7008,170.3133,-20.5,85,9,6.38,RU,1670048768
94,bitung,1.4451,125.1824,30.47,74,68,4.3,ID,1670048769
95,avarua,-21.2078,-159.775,26.03,89,40,4.12,CK,1670048769
96,san carlos de bariloche,-41.1456,-71.3082,10.16,90,52,4.12,AR,1670048651
97,tapes,-30.6733,-51.3958,21.73,95,93,2.84,BR,1670048770
98,new norfolk,-42.7826,147.0587,28.28,15,39,1.34,AU,1670048770
99,kondinskoye,59.6481,67.41,-20.15,88,5,2.62,RU,1670048529
100,kourou,5.1552,-52.6478,23.03,91,100,1.97,GF,1670048771
101,georgetown,5.4112,100.3354,29.38,82,40,2.57,MY,1670048540
102,kilinochchi,9.3961,80.3982,27.56,75,97,4.07,LK,1670048772
103,longyearbyen,78.2186,15.6401,2.91,87,75,4.63,SJ,1670048621
104,bengkulu,-3.8004,102.2655,24.32,91,100,0.48,ID,1670048772
105,bambous virieux,-20.3428,57.7575,28.14,54,75,2.57,MU,1670048773
106,ca mau,9.1769,105.15,24.48,92,100,4.89,VN,1670048773
107,punta arenas,-53.15,-70.9167,5.06,65,75,2.06,CL,1670048660
108,paamiut,61.994,-49.6678,-0.01,78,100,11.08,GL,1670048774
109,davila,18.4726,120.5763,32.99,66,56,6.59,PH,1670048774
110,leningradskiy,69.3833,178.4167,-15.5,74,68,3.56,RU,1670048775
111,novosokolniki,56.3463,30.1578,-6.07,95,90,2.45,RU,1670048775
112,nicoya,10.1483,-85.452,21.87,90,9,0.98,CR,1670048738
113,cabedelo,-6.9811,-34.8339,24.37,78,11,6.58,BR,1670048776
114,maragogi,-9.0122,-35.2225,24.0,87,18,3.34,BR,1670048777
115,grand-santi,4.25,-54.3833,22.05,100,100,0.94,GF,1670048777
116,terrace bay,48.7834,-87.1,0.08,96,100,6.05,CA,1670048778
117,ilulissat,69.2167,-51.1,1.01,86,75,3.6,GL,1670048778
118,belaya gora,68.5333,146.4167,-26.75,80,100,5.75,RU,1670048779
119,airai,-8.9266,125.4092,23.63,49,53,1.11,TL,1670048779
120,trairi,-3.2778,-39.2689,26.09,70,52,5.57,BR,1670048524
121,shingu,33.7333,135.9833,13.89,59,100,1.39,JP,1670048780
122,khatanga,71.9667,102.5,-19.65,98,88,3.11,RU,1670048780
123,saint george,37.1041,-113.5841,8.02,52,0,0.89,US,1670048781
124,vardo,70.3705,31.1107,-3.01,86,25,9.26,NO,1670048781
125,metro,-5.1131,105.3067,29.85,61,83,5.32,ID,1670048782
126,saco,43.5009,-70.4428,6.16,83,0,3.6,US,1670048783
127,bud,39.447,-86.1758,11.14,93,100,9.39,US,1670048783
128,alta floresta,-9.8756,-56.0861,20.98,99,94,0.91,BR,1670048784
129,ostrovnoy,68.0531,39.5131,-7.45,95,68,3.79,RU,1670048784
130,palencia,42.4167,-4.5,-2.27,89,8,2.66,ES,1670048699
131,rock sound,24.9,-76.2,25.19,63,46,12.05,BS,1670048785
132,carutapera,-1.195,-46.02,25.76,79,100,3.93,BR,1670048785
133,dezhou,37.4486,116.2925,2.61,23,97,5.71,CN,1670048786
134,rockhampton,-23.3833,150.5,27.94,39,28,4.12,AU,1670048539
135,srandakan,-7.9386,110.2506,27.78,75,79,4.26,ID,1670048787
136,mount gambier,-37.8333,140.7667,26.3,31,12,3.22,AU,1670048787
137,sorong,-0.8833,131.25,28.26,74,100,2.24,ID,1670048787
138,portland,45.5234,-122.6762,6.1,76,100,5.14,US,1670048586
139,te anau,-45.4167,167.7167,16.06,66,88,2.1,NZ,1670048788
140,merauke,-8.4667,140.3333,29.18,67,82,4.05,ID,1670048788
141,mabaruma,8.2,-59.7833,22.0,98,86,0.85,GY,1670048789
142,morales,2.757,-76.6172,14.38,98,92,0.13,CO,1670048789
143,hermanus,-34.4187,19.2345,16.56,64,86,3.21,ZA,1670048790
144,huambo,-12.7761,15.7392,17.73,83,100,0.26,AO,1670048790
145,maneadero,31.7167,-116.5667,14.67,72,100,0.52,MX,1670048791
146,codrington,-38.2667,141.9667,22.24,54,11,4.03,AU,1670048791
147,jamestown,42.097,-79.2353,9.29,52,100,8.23,US,1670048792
148,kenora,49.8167,-94.4337,-18.46,84,100,5.14,CA,1670048792
149,astana,51.1801,71.446,-18.03,78,40,7.0,KZ,1670048792
150,la ronge,55.1001,-105.2842,-23.86,77,0,3.6,CA,1670048793
151,lompoc,34.6391,-120.4579,14.88,94,100,3.6,US,1670048793
152,matagami,49.7502,-77.6328,-0.94,93,100,6.69,CA,1670048794
153,buala,-8.145,159.5921,26.75,83,100,1.26,SB,1670048794
154,bima,-8.4667,118.7167,29.63,73,48,0.6,ID,1670048795
155,yellowknife,62.456,-114.3525,-36.71,67,20,3.6,CA,1670048609
156,iqaluit,63.7506,-68.5145,-14.15,84,75,1.03,CA,1670048795
157,norman wells,65.282,-126.8329,-10.98,92,100,0.0,CA,1670048796
158,chapais,49.7834,-74.8492,-2.12,95,100,6.51,CA,1670048720
159,geelong,-38.1471,144.3607,29.48,57,8,6.69,AU,1670048797
160,bethel,41.3712,-73.414,6.47,75,100,2.57,US,1670048611
161,carnarvon,-24.8667,113.6333,24.4,63,2,6.99,AU,1670048797
162,zhezkazgan,47.8043,67.7144,-17.01,85,100,6.0,KZ,1670048798
163,coihaique,-45.5752,-72.0662,11.97,62,100,3.6,CL,1670048743
164,san cristobal,7.7669,-72.225,17.12,97,94,1.49,VE,1670048799
165,turukhansk,65.8167,87.9833,-16.18,96,100,4.28,RU,1670048799
166,torbay,47.6666,-52.7314,-0.9,73,20,4.63,CA,1670048799
167,port blair,11.6667,92.75,31.02,70,75,4.12,IN,1670048800
168,katangli,51.7102,143.2326,-17.61,91,85,1.5,RU,1670048800
169,marataizes,-21.0433,-40.8244,22.22,93,100,4.97,BR,1670048801
170,katsuura,35.1333,140.3,12.5,75,98,1.34,JP,1670048801
171,madisonville,37.3281,-87.4989,16.04,81,98,4.47,US,1670048530
172,toppenish,46.3774,-120.3087,-5.92,89,78,0.95,US,1670048802
173,matucana,-11.85,-76.4,13.39,62,19,0.92,PE,1670048802
174,qaqortoq,60.7167,-46.0333,0.33,98,100,2.82,GL,1670048803
175,poum,-20.2333,164.0167,26.73,83,100,2.28,NC,1670048803
176,shelburne,44.0787,-80.2041,5.89,80,100,9.95,CA,1670048514
177,batagay-alyta,67.8006,130.4114,-24.47,85,100,1.95,RU,1670048804
178,esperance,-33.8667,121.9,20.22,65,9,5.95,AU,1670048804
179,ribeira grande,38.5167,-28.7,13.21,74,92,5.81,PT,1670048805
180,yulara,-25.2406,130.9889,37.01,10,4,2.49,AU,1670048805
181,sitka,57.0531,-135.33,-3.06,54,20,2.57,US,1670048806
182,la asuncion,11.0333,-63.8628,18.85,100,37,3.6,VE,1670048806
183,coquimbo,-29.9533,-71.3436,14.85,88,100,1.54,CL,1670048596
184,roald,62.5833,6.1333,3.75,69,40,6.17,NO,1670048807
185,alenquer,-1.9417,-54.7383,23.64,91,99,1.49,BR,1670048808
186,santa luzia,-19.7697,-43.8514,21.19,78,20,3.09,BR,1670048808
187,los llanos de aridane,28.6585,-17.9182,16.74,88,40,3.09,ES,1670048809
188,puksoozero,62.5903,40.6066,-9.26,89,100,2.38,RU,1670048809
189,verin,41.9415,-7.4381,3.09,79,0,0.48,ES,1670048810
190,namibe,-15.1961,12.1522,21.47,82,100,1.86,AO,1670048810
191,tiksi,71.6872,128.8694,-22.14,96,100,12.11,RU,1670048810
192,itapirapua,-15.8233,-50.6133,22.99,82,85,1.41,BR,1670048811
193,tuktoyaktuk,69.4541,-133.0374,-4.0,93,100,13.38,CA,1670048692
194,inhambane,-23.865,35.3833,28.99,70,20,4.18,MZ,1670048812
195,chuy,-33.6971,-53.4616,17.7,87,100,2.13,UY,1670048812
196,lunenburg,44.3835,-64.3155,1.03,80,26,1.54,CA,1670048812
197,kerema,-7.9631,145.7785,27.71,77,88,1.49,PG,1670048813
198,christchurch,-43.5333,172.6333,16.64,58,75,5.66,NZ,1670048706
199,dire,12.2833,-10.9667,22.27,41,99,0.25,ML,1670048813
200,fairbanks,64.8378,-147.7164,-7.44,89,100,2.57,US,1670048142
201,chokurdakh,70.6333,147.9167,-20.48,93,100,8.54,RU,1670048814
202,khorramshahr,30.4397,48.1664,17.98,63,75,4.12,IR,1670048815
203,imeni babushkina,59.7573,43.1285,-10.76,91,100,2.33,RU,1670048815
204,sao felix do xingu,-6.6447,-51.995,21.56,94,95,0.37,BR,1670048670
205,bullhead city,35.1478,-114.5683,15.6,51,20,1.34,US,1670048572
206,urubicha,-15.3833,-62.95,21.28,73,100,0.27,BO,1670048530
207,champerico,14.3,-91.9167,25.52,77,40,1.7,GT,1670048816
208,terrace,54.5163,-128.6035,-11.05,61,0,9.77,CA,1670048817
209,labuhan,-6.8844,112.2051,29.26,66,96,3.1,ID,1670048818
210,barra patuca,15.8,-84.2833,25.08,84,90,3.96,HN,1670048818
211,thompson,55.7435,-97.8558,-27.91,76,20,2.57,CA,1670048798
212,richmond hill,43.8711,-79.4372,7.6,81,100,6.62,CA,1670048819
213,puerto el triunfo,13.2833,-88.55,24.35,71,3,2.35,SV,1670048819
214,mantua,45.1667,10.7833,7.25,91,100,4.02,IT,1670048820
215,adiake,5.2863,-3.304,24.33,88,85,1.64,CI,1670048820
216,mao,39.8885,4.2658,11.31,93,75,1.54,ES,1670048820
217,canico,32.6333,-16.85,16.35,69,40,5.14,PT,1670048821
218,hithadhoo,-0.6,73.0833,27.94,72,88,6.19,MV,1670048822
219,salinas,36.6777,-121.6555,10.84,82,0,6.69,US,1670048732
220,arman,59.7,150.1667,-11.18,88,100,1.3,RU,1670048824
221,faanui,-16.4833,-151.75,27.19,76,68,8.59,PF,1670048825
222,uaua,-9.8414,-39.4817,19.84,90,93,4.91,BR,1670048826
223,illapel,-31.6308,-71.1653,18.1,69,0,0.38,CL,1670048826
224,touros,-5.1989,-35.4608,25.44,79,23,6.25,BR,1670048538
225,dakar,14.6937,-17.4441,23.07,68,0,2.06,SN,1670048823
226,sainte-marie,-20.8968,55.5496,29.09,70,75,2.57,RE,1670048828
227,saldanha,-33.0117,17.9442,19.03,57,63,7.54,ZA,1670048829
228,byron bay,-28.65,153.6167,20.52,59,68,7.35,AU,1670048642
229,lavrentiya,65.5833,-171.0,-4.38,85,95,4.97,RU,1670048830
230,praia da vitoria,38.7333,-27.0667,12.14,71,40,14.14,PT,1670048832
231,nago,26.5881,127.9761,18.47,94,100,4.77,JP,1670048536
232,palmer,42.1584,-72.3287,4.92,77,100,2.06,US,1670048833
233,stykkisholmur,65.0757,-22.7297,3.62,85,30,2.38,IS,1670048834
234,dingle,10.9995,122.6711,27.61,84,100,4.78,PH,1670048835
235,la libertad,-2.2333,-80.9,21.57,84,35,4.27,EC,1670048836
236,kautokeino,69.0125,23.0412,-4.69,93,100,3.69,NO,1670048836
237,russell,32.3502,-85.1999,13.31,94,61,1.31,US,1670048741
238,bjornevatn,69.6672,29.9847,-5.21,92,68,3.6,NO,1670048839
239,pangkalanbuun,-2.6833,111.6167,30.78,62,100,2.48,ID,1670048839
240,mazagao,-0.115,-51.2894,23.03,94,99,1.21,BR,1670048841
241,atikokan,48.7555,-91.6216,-12.56,83,100,5.71,CA,1670048842
242,ciudad bolivar,8.1222,-63.5497,24.17,83,100,3.35,VE,1670048843
243,talnakh,69.4865,88.3972,-19.59,98,97,2.97,RU,1670048845
244,kruisfontein,-34.0033,24.7314,19.38,65,39,8.36,ZA,1670048845
245,le port,-20.9373,55.2919,29.0,70,38,1.84,RE,1670048763
246,mandalgovi,45.7625,106.2708,-13.81,39,0,4.27,MN,1670048847
247,negara,-8.3151,114.6025,28.82,70,89,2.47,ID,1670048848
248,vestmanna,62.1564,-7.1664,6.51,93,100,9.26,FO,1670048848
249,mariental,-24.6333,17.9667,23.41,25,9,2.63,NA,1670048849
250,utica,43.1009,-75.2327,6.3,59,100,3.58,US,1670048681
251,aklavik,68.2191,-135.0107,-4.51,84,100,1.78,CA,1670048850
252,nome,64.5011,-165.4064,0.09,93,100,4.12,US,1670048628
253,fatehpur,25.9333,80.8,23.1,36,53,0.81,IN,1670048850
254,sangar,63.9242,127.4739,-33.58,93,98,1.63,RU,1670048851
255,bonthe,7.5264,-12.505,24.72,85,89,0.61,SL,1670048851
256,pringsewu,-5.3582,104.9744,27.31,72,100,3.79,ID,1670048852
257,mackay,-21.15,149.2,28.71,62,1,7.01,AU,1670048852
258,havre-saint-pierre,50.2334,-63.5986,0.0,73,100,4.12,CA,1670048853
259,tevaitoa,-16.7833,-151.5,27.24,77,62,8.73,PF,1670048853
260,mapiripan,2.8892,-72.1256,22.89,84,100,2.58,CO,1670048854
261,kirakira,-10.4544,161.9205,26.53,84,100,2.11,SB,1670048854
262,palanga,55.9175,21.0686,-3.99,86,100,2.57,LT,1670048855
263,maiduguri,11.8464,13.1603,21.87,34,65,2.51,NG,1670048855
264,hovd,48.0056,91.6419,-14.23,53,23,0.82,MN,1670048855
265,half moon bay,37.4636,-122.4286,9.4,83,100,0.0,US,1670048570
266,tamiahua,21.2667,-97.45,21.17,91,0,1.4,MX,1670048856
267,mtwara,-10.2667,40.1833,30.63,58,75,5.14,TZ,1670048857
268,karaton,-6.3424,106.1045,28.15,66,96,3.03,ID,1670048857
269,kropotkin,45.4375,40.5756,1.08,63,100,10.47,RU,1670048857
270,dauphin,51.1494,-100.0502,-21.92,71,0,6.69,CA,1670048858
271,mahebourg,-20.4081,57.7,28.16,54,75,2.57,MU,1670048858
272,marawi,7.9986,124.2928,27.22,64,92,3.19,PH,1670048859
273,lebanon,36.2081,-86.2911,17.12,78,100,8.23,US,1670048781
274,newport,51.5877,-2.9984,6.3,84,62,7.28,GB,1670048677
275,victoria,22.2855,114.1577,23.43,74,100,4.92,HK,1670048583
276,eenhana,-17.4667,16.3333,26.81,40,63,2.54,NA,1670048860
277,bambari,5.768,20.6757,24.75,68,100,0.3,CF,1670048860
278,troitsko-pechorsk,62.7084,56.1964,-10.8,96,99,1.7,RU,1670048861
279,guerrero negro,27.9769,-114.0611,16.45,73,99,2.37,MX,1670048861
280,fortuna,40.5982,-124.1573,4.99,83,0,6.69,US,1670048862
281,inverness,57.4791,-4.224,7.95,98,100,1.45,GB,1670048800
282,souillac,-20.5167,57.5167,28.21,54,75,2.57,MU,1670048862
283,perevolotskiy,51.8763,54.1938,-15.11,73,6,5.2,RU,1670048863
284,kushiro,42.975,144.3747,5.53,65,75,7.2,JP,1670048863
285,abha,18.2164,42.5053,16.9,45,0,1.54,SA,1670048864
286,hervey bay,-25.2986,152.8535,22.79,69,19,6.71,AU,1670048640
287,porto walter,-8.2686,-72.7439,21.45,99,100,1.82,BR,1670048864
288,ambon,-3.6954,128.1814,30.08,74,40,5.66,ID,1670048865
289,lindi,-10.0,39.7167,29.95,54,84,3.55,TZ,1670048865
290,abu samrah,35.3029,37.1841,13.7,70,18,0.78,SY,1670048866
291,grand bank,47.0999,-55.765,1.0,67,43,4.62,CA,1670048866
292,faya,18.3851,42.4509,17.06,56,0,0.43,SA,1670048867
293,anadyr,64.75,177.4833,-9.72,79,0,1.0,RU,1670048868
294,siyabuswa,-25.1132,29.0445,27.54,36,32,0.72,ZA,1670048868
295,kijang,35.2442,129.2139,10.85,47,74,3.01,KR,1670048868
296,ha tinh,18.3333,105.9,20.34,79,99,3.11,VN,1670048869
297,nushki,29.5542,66.0215,12.58,37,0,1.54,PK,1670048870
298,havoysund,70.9963,24.6622,-0.87,81,23,5.65,NO,1670048693
299,evanston,42.0411,-87.6901,10.62,86,100,7.2,US,1670048702
300,charlestown,-32.95,151.6667,23.23,66,21,1.79,AU,1670048871
301,forestville,38.8451,-76.875,10.12,71,100,9.77,US,1670048871
302,kingman,35.1894,-114.053,10.3,65,75,1.79,US,1670048872
303,port hedland,-20.3167,118.5667,37.03,34,6,9.26,AU,1670048872
304,prado,-17.3411,-39.2208,22.88,92,100,3.11,BR,1670048873
305,acajutla,13.5928,-89.8275,25.27,69,0,2.6,SV,1670048873
306,raudeberg,61.9875,5.1352,3.37,67,65,3.89,NO,1670048873
307,takoradi,4.8845,-1.7554,24.93,85,98,3.11,GH,1670048874
308,margate,51.3813,1.3862,6.5,81,100,3.58,GB,1670048874
309,taitung,22.7583,121.1444,28.15,69,40,0.51,TW,1670048875
310,union,40.6334,-74.2663,8.29,73,75,1.54,US,1670048823
311,westport,41.1415,-73.3579,9.39,78,40,2.06,US,1670048876
312,honiara,-9.4333,159.95,26.1,87,100,0.77,SB,1670048876
313,okha,53.5739,142.9478,-20.19,91,30,5.33,RU,1670048877
314,qui nhon,13.7667,109.2333,25.76,88,100,5.29,VN,1670048877
315,sabha,27.0377,14.4283,13.61,43,17,5.26,LY,1670048878
316,altay,47.8667,88.1167,-13.06,81,13,0.33,CN,1670048878
317,walvis bay,-22.9575,14.5053,15.53,88,100,5.14,NA,1670048879
318,san policarpo,12.1791,125.5072,28.17,81,100,5.32,PH,1670048879
319,toamasina,-18.1667,49.3833,29.0,70,40,3.09,MG,1670048879
320,mala tokmachka,47.5356,35.8929,-0.88,60,100,7.52,UA,1670048880
321,mecca,21.4267,39.8261,25.15,64,0,0.74,SA,1670048880
322,hede,33.7681,120.2517,6.17,59,100,2.08,CN,1670048881
323,rio gallegos,-51.6226,-69.2181,4.03,70,75,1.54,AR,1670048881
324,honjo,36.2333,139.1833,14.82,35,14,0.48,JP,1670048882
325,rundu,-17.9333,19.7667,26.7,27,3,2.46,NA,1670048883
326,krasnoselkup,65.7,82.4667,-7.56,95,100,5.31,RU,1670048884
327,develi,38.3906,35.4922,0.64,79,5,0.32,TR,1670048884
328,aleksinac,43.5417,21.7078,4.16,95,100,2.26,RS,1670048651
329,pundaguitan,6.3711,126.1689,27.84,77,92,4.07,PH,1670048886
330,atyrau,47.1167,51.8833,-12.99,66,0,7.0,KZ,1670048887
331,camacha,33.0833,-16.3333,12.68,72,40,2.06,PT,1670048888
332,cockburn town,21.4612,-71.1419,26.5,68,46,9.92,TC,1670048598
333,sao geraldo do araguaia,-6.4006,-48.555,22.47,98,100,1.08,BR,1670048889
334,arequipa,-16.3989,-71.535,10.78,51,7,0.57,PE,1670048703
335,hambantota,6.1241,81.1185,30.19,79,40,3.09,LK,1670048890
336,adeje,28.1227,-16.726,18.49,85,75,1.54,ES,1670048891
337,muana,-1.5283,-49.2167,24.17,93,100,1.32,BR,1670048891
338,geraldton,-28.7667,114.6,24.23,53,27,6.17,AU,1670048892
339,grindavik,63.8424,-22.4338,3.26,100,0,1.54,IS,1670048893
340,khovu-aksy,51.1333,93.6,-19.79,81,4,0.78,RU,1670048893
341,bam,29.106,58.357,15.39,33,0,2.24,IR,1670048894
342,khani,41.9563,42.9566,3.76,91,100,1.29,GE,1670048894
343,pacific grove,36.6177,-121.9166,10.61,83,75,0.45,US,1670048895
344,beeville,28.4008,-97.7483,19.1,94,78,0.0,US,1670048648
345,rio grande,-32.035,-52.0986,20.87,90,100,3.96,BR,1670048896
346,tateyama,34.9833,139.8667,13.94,73,100,0.7,JP,1670048897
347,broken hill,-31.95,141.4333,31.78,16,4,4.01,AU,1670048897
348,cidreira,-30.1811,-50.2056,22.19,96,97,2.17,BR,1670048898
349,donskoye,45.4552,41.9741,-1.93,69,100,9.52,RU,1670048899
350,dudinka,69.4058,86.1778,-16.29,98,97,1.57,RU,1670048899
351,prince albert,53.2001,-105.7677,-26.03,70,20,4.12,CA,1670048900
352,darlawn,24.0167,92.9,25.78,42,1,1.29,IN,1670048901
353,deqing,30.5448,119.9599,9.41,88,100,1.62,CN,1670048902
354,san jose,37.3394,-121.895,9.4,85,75,0.89,US,1670048130
355,karratha,-20.7377,116.8463,33.26,42,1,10.48,AU,1670048903
356,provideniya,64.3833,-173.3,-3.92,83,79,3.15,RU,1670048904
357,yabrud,33.9674,36.6574,8.08,62,89,0.31,SY,1670048907
358,cururupu,-1.8283,-44.8683,24.85,79,72,2.92,BR,1670048907
359,jiayuguan,39.8167,98.3,-6.07,58,98,2.25,CN,1670048908
360,naryan-mar,67.6713,53.087,-4.89,96,100,3.53,RU,1670048908
361,voyvozh,62.892,54.9635,-11.48,97,99,1.78,RU,1670048909
362,college,64.8569,-147.8028,-7.45,88,100,2.57,US,1670048804
363,cotonou,6.3654,2.4183,26.99,83,40,5.66,BJ,1670048909
364,marzuq,14.4,46.4667,21.12,40,2,1.86,YE,1670048910
365,caravelas,-17.7125,-39.2481,22.33,94,100,2.06,BR,1670048911
366,am timan,11.0297,20.2827,25.08,24,40,4.44,TD,1670048911
367,pangody,65.85,74.4859,-6.55,94,100,7.91,RU,1670048912
368,otradnoye,59.7775,30.8181,-7.8,82,100,2.85,RU,1670048912
369,svetlogorsk,52.6333,29.7333,-4.32,90,100,3.93,BY,1670048913
370,trapani,37.8333,12.6667,15.49,82,20,7.2,IT,1670048913
371,panaba,21.2833,-88.2667,22.79,93,1,3.44,MX,1670048914
372,turayf,31.6725,38.6637,10.14,81,0,2.06,SA,1670048914
373,okhotsk,59.3833,143.3,-25.14,97,93,3.38,RU,1670048915
374,tuatapere,-46.1333,167.6833,15.5,65,93,3.58,NZ,1670048915
375,sibolga,1.7427,98.7792,26.75,82,100,1.16,ID,1670048916
376,solnechnyy,50.7214,136.6319,-16.52,89,100,1.22,RU,1670048916
377,the valley,18.217,-63.0578,26.17,65,1,7.26,AI,1670048916
378,egvekinot,66.3167,-179.1667,-17.62,90,87,3.2,RU,1670048917
379,bilibino,68.0546,166.4372,-25.89,98,48,1.59,RU,1670048917
380,gunjur,13.2019,-16.7339,18.04,88,92,2.06,GM,1670048918
381,tucumcari,35.1717,-103.725,4.41,41,0,9.77,US,1670048918
382,mayskiy,47.6931,40.1025,-4.33,70,100,8.89,RU,1670048919
383,kupino,54.3663,77.2981,-17.87,91,30,2.14,RU,1670048919
384,ternate,0.8,127.4,28.82,71,45,1.94,ID,1670048919
385,chama,47.1821,8.4636,2.02,93,100,0.51,CH,1670048920
386,larkollen,59.3339,10.6656,2.3,75,100,4.12,NO,1670048920
387,moose factory,51.2585,-80.6094,0.0,100,100,2.57,CA,1670048921
388,marinette,45.1,-87.6307,5.27,88,100,6.33,US,1670048921
389,alofi,-19.0595,-169.9187,26.94,83,42,1.54,NU,1670048922
390,tottori,35.5,134.2333,14.04,41,20,2.06,JP,1670048880
391,yatou,37.15,122.3833,3.39,68,90,8.38,CN,1670048922
392,kjollefjord,70.9457,27.3465,-0.97,86,13,7.72,NO,1670048923
393,alcaniz,41.05,-0.1333,2.72,83,50,0.9,ES,1670048923
394,haines junction,60.7522,-137.5108,-12.03,79,100,1.03,CA,1670048924
395,tezu,27.9167,96.1667,26.64,26,0,1.58,IN,1670048924
396,arroyo,41.6096,-4.7969,-1.34,90,5,0.0,ES,1670048925
397,zabol,32.25,67.25,6.72,47,0,1.95,AF,1670048774
398,yenagoa,4.9247,6.2642,24.61,92,100,1.08,NG,1670048926
399,brigantine,39.4101,-74.3646,12.24,88,100,4.12,US,1670048628
400,nikolskoye,59.7035,30.7861,-7.89,83,100,2.87,RU,1670048927
401,leh,34.1667,77.5833,-2.28,52,12,1.83,IN,1670048671
402,sambava,-14.2667,50.1667,27.22,70,26,2.72,MG,1670048928
403,presidencia roque saenz pena,-26.7852,-60.4388,18.91,50,1,0.8,AR,1670048928
404,saint-pierre,-21.3393,55.4781,28.82,61,0,4.63,RE,1670048928
405,flinders,-34.5833,150.8552,22.25,70,0,4.58,AU,1670048929
406,ossora,59.2353,163.0719,-6.7,80,100,12.01,RU,1670048929
407,berlevag,70.8578,29.0864,-0.11,80,13,1.03,NO,1670048930
408,broome,42.2506,-75.833,5.47,65,75,6.26,US,1670048930
409,frontera,26.9333,-101.45,16.85,79,2,0.89,MX,1670048931
410,marfino,55.7028,37.3822,-12.73,85,100,6.0,RU,1670048931
411,meulaboh,4.1363,96.1285,27.74,71,95,0.82,ID,1670048932
412,chulym,55.0997,80.9572,-18.94,95,71,0.79,RU,1670048932
413,baglung,28.2719,83.5898,21.22,44,1,2.5,NP,1670048932
414,verbilki,56.5333,37.6,-9.74,89,100,3.0,RU,1670048933
415,terra santa,-2.1042,-56.4869,23.69,90,100,1.09,BR,1670048933
416,ishigaki,24.3448,124.1572,28.07,69,75,1.54,JP,1670048934
417,tigre,-34.426,-58.5796,20.0,79,0,2.57,AR,1670048767
418,mweka,-4.85,21.5667,23.11,72,53,0.73,CD,1670048935
419,rocha,-34.4833,-54.3333,13.83,94,99,1.12,UY,1670048935
420,tiarei,-17.5333,-149.3333,28.01,82,60,8.73,PF,1670048936
421,yerbogachen,61.2767,108.0108,-16.99,94,100,4.66,RU,1670048936
422,naze,28.3667,129.4833,19.51,89,100,6.56,JP,1670048936
423,santa rosa,14.3122,121.1114,33.95,69,98,6.95,PH,1670048937
424,nantucket,41.2835,-70.0995,10.08,83,0,4.63,US,1670048937
425,strezhevoy,60.7333,77.5889,-20.14,94,6,4.71,RU,1670048938
426,hamilton,39.1834,-84.5333,12.47,85,100,6.69,US,1670048841
427,chabahar,25.2919,60.643,25.96,28,0,5.43,IR,1670048939
428,hualmay,-11.0964,-77.6139,18.75,90,10,3.65,PE,1670048940
429,nanortalik,60.1432,-45.2371,0.68,99,100,3.44,GL,1670048940
430,trelew,-43.249,-65.3051,20.44,28,3,4.71,AR,1670048941
431,talcahuano,-36.7167,-73.1167,14.82,82,40,5.14,CL,1670048941
432,biak,-0.9131,122.8766,28.59,70,97,0.31,ID,1670048942
433,penzance,50.1186,-5.5371,4.38,81,7,10.0,GB,1670048943
434,vysokogornyy,50.1167,139.15,-14.58,89,100,1.88,RU,1670048943
435,yilan,24.757,121.753,24.92,79,40,1.7,TW,1670048683
436,carman,49.4992,-98.0016,-16.81,71,15,3.6,CA,1670048945
437,ojinaga,29.5667,-104.4167,16.53,44,0,4.12,MX,1670048947
438,salalah,17.0151,54.0924,28.05,44,0,1.03,OM,1670048753
439,andijon,40.7821,72.3442,3.88,70,100,1.03,UZ,1670048948
440,nuuk,64.1835,-51.7216,-0.85,83,93,14.31,GL,1670048949
441,along,28.1667,94.7667,25.72,35,0,0.82,IN,1670048949
442,sao miguel,-5.4667,-35.3667,22.43,80,19,6.37,BR,1670048950
443,rajanpur,29.1035,70.325,24.17,17,0,4.21,PK,1670048951
444,wynyard,-41.0,145.7167,18.88,70,74,2.67,AU,1670048952
445,alihe,50.5667,123.7167,-19.31,69,76,2.58,CN,1670048953
446,poltavka,54.3663,71.7632,-17.69,85,9,3.17,RU,1670048954
447,hami,42.8,93.45,-3.97,20,40,1.43,CN,1670048954
448,ramos arizpe,25.55,-100.9667,17.2,55,0,0.0,MX,1670048955
449,kurilsk,45.2333,147.8833,1.34,59,88,4.45,RU,1670048955
450,huarmey,-10.0681,-78.1522,19.1,89,49,3.41,PE,1670048956
451,port hardy,50.6996,-127.4199,1.1,93,100,10.8,CA,1670048957
452,alanya,36.5438,31.9998,12.07,48,71,1.32,TR,1670048957
453,manaus,-3.1019,-60.025,24.27,88,0,1.54,BR,1670048731
454,pa sang,18.5262,98.9394,30.58,57,82,0.3,TH,1670048958
455,benidorm,38.5382,-0.131,11.05,72,79,4.23,ES,1670048808
456,luwuk,-0.9516,122.7875,29.33,76,98,0.48,ID,1670048959
457,kungurtug,50.5994,97.5228,-21.02,84,59,0.56,RU,1670048960
458,grand gaube,-20.0064,57.6608,28.22,69,22,3.52,MU,1670048961
459,mitzic,0.7821,11.549,20.13,96,100,0.71,GA,1670048961
460,loiza,18.4313,-65.8802,25.6,83,40,0.0,PR,1670048962
461,yumen,40.2833,97.2,-6.63,65,98,3.48,CN,1670048963
462,karpogory,64.0019,44.4451,-10.49,95,100,1.54,RU,1670048963
463,kuju,23.7167,85.5,24.41,31,0,1.92,IN,1670048964
464,tornio,65.8481,24.1466,-3.99,93,100,3.15,FI,1670048966
465,tual,-5.6667,132.75,28.75,68,29,1.6,ID,1670048966
466,vuktyl,63.8567,57.3094,-15.21,98,96,1.61,RU,1670048967
467,cherskiy,68.75,161.3,-28.84,99,20,2.08,RU,1670048967
468,killybegs,54.6333,-8.45,5.9,86,84,2.08,IE,1670048968
469,makakilo city,21.3469,-158.0858,22.18,85,40,2.06,US,1670048968
470,sault sainte marie,46.5168,-84.3333,4.31,75,100,3.09,CA,1670048866
471,bonavista,48.6499,-53.1147,-0.81,69,22,6.96,CA,1670048969
472,savonlinna,61.8699,28.88,-4.97,86,100,1.54,FI,1670048970
473,karatuzskoye,53.6072,92.8667,-17.82,83,77,0.75,RU,1670048970
474,det udom,14.906,105.0784,30.9,61,100,2.41,TH,1670048970
475,batemans bay,-35.7167,150.1833,20.61,59,0,4.09,AU,1670048971
476,eyrarbakki,63.863,-21.1481,0.67,82,13,3.81,IS,1670048971
477,lagoa,39.05,-27.9833,13.69,61,89,14.98,PT,1670048972
478,pajapan,18.25,-94.7,22.15,84,1,3.0,MX,1670048972
479,lagos,6.5833,3.75,25.18,87,99,0.38,NG,1670048973
480,puerto salgar,5.463,-74.6544,20.96,96,95,0.57,CO,1670048973
481,pyay,18.8167,95.2167,31.74,50,77,2.64,MM,1670048974
482,lewiston,44.1003,-70.2148,6.35,80,0,3.09,US,1670048974
483,liverpool,53.4106,-2.9779,5.36,96,39,3.07,GB,1670048850
484,burdeos,14.8436,121.9697,26.99,86,64,5.91,PH,1670048975
485,necochea,-38.5473,-58.7368,14.96,53,0,5.48,AR,1670048975
486,nizhniy ufaley,55.9153,59.9842,-14.77,65,4,0.89,RU,1670048976
487,mumford,5.2618,-0.759,25.29,83,100,3.4,GH,1670048977
488,bouar,5.934,15.596,21.85,38,100,0.97,CF,1670048977
489,saskatoon,52.1168,-106.6345,-28.01,76,40,6.17,CA,1670048796
490,khuzhir,53.1939,107.3397,-13.23,68,99,4.72,RU,1670048978
491,cap malheureux,-19.9842,57.6142,24.62,69,22,2.86,MU,1670048978
492,vanimo,-2.6741,141.3028,29.6,69,99,4.65,PG,1670048979
493,santa cruz,-17.8,-63.1667,22.7,68,40,3.09,BO,1670048979
494,kabo,7.6994,18.629,24.13,57,96,1.94,CF,1670048980
495,kununurra,-15.7667,128.7333,38.99,17,46,2.06,AU,1670048980
496,lantawan,10.6167,123.9833,27.83,74,91,3.62,PH,1670048980
497,sampit,-2.5333,112.95,29.59,68,100,1.42,ID,1670048982
498,brest,52.1,23.7,-2.02,93,100,4.0,BY,1670048982
499,sola,-13.8833,167.55,27.98,68,100,5.72,VU,1670048983
500,bilma,18.6853,12.9164,19.12,22,8,3.73,NE,1670048983
501,sinnamary,5.3833,-52.95,24.19,89,96,3.14,GF,1670048984
502,qasigiannguit,68.8193,-51.1922,1.14,59,100,14.29,GL,1670048984
503,whitehorse,60.7161,-135.0538,-14.57,78,100,1.54,CA,1670048914
504,oranjemund,-28.55,16.4333,15.61,65,13,7.35,NA,1670048984
505,hirara,24.8,125.2833,27.15,83,75,11.32,JP,1670048985
506,mahon,39.8885,4.2658,11.31,93,75,1.54,ES,1670048985
507,bend,44.0582,-121.3153,-1.74,74,0,2.57,US,1670048970
508,hong gai,20.956,107.0946,20.95,72,98,1.65,VN,1670048986
509,canmore,51.0834,-115.3521,-13.29,78,80,3.09,CA,1670048944
510,vila velha,-20.3297,-40.2925,21.97,99,75,1.03,BR,1670048917
511,kavieng,-2.5744,150.7967,27.79,77,100,5.19,PG,1670048987
512,shebunino,46.4339,141.8603,-2.65,89,100,3.2,RU,1670048987
513,vostok,46.4856,135.8833,-8.99,94,98,1.76,RU,1670048988
514,baykit,61.67,96.37,-17.31,94,100,1.64,RU,1670048988
515,vanavara,60.34,102.2797,-19.46,96,100,2.93,RU,1670048988
516,mayo,38.8876,-76.5119,11.09,75,100,5.66,US,1670048873
517,chaman,30.9236,66.4512,11.1,39,0,1.43,PK,1670048989
518,verkhoyansk,67.5447,133.385,-24.28,98,100,2.03,RU,1670048989
519,letlhakane,-21.4167,25.5833,28.67,27,31,4.06,BW,1670048990
520,hearst,49.6835,-83.6665,0.14,98,100,3.48,CA,1670048990
521,myrtle beach,33.6891,-78.8867,11.03,100,0,1.54,US,1670048991
522,bolshaya sosnova,57.6713,54.6029,-19.55,94,61,0.51,RU,1670048991
523,lanzhou,36.0564,103.7922,-0.13,29,96,1.2,CN,1670048991
524,banska bystrica,48.5,19.5,1.34,97,100,1.09,SK,1670048992
525,marand,38.4329,45.7749,5.82,70,84,0.37,IR,1670048992
526,severomuysk,56.1481,113.4267,-27.91,93,99,2.86,RU,1670048993
527,tura,25.5198,90.2201,25.16,51,0,1.38,IN,1670048993
528,isangel,-19.55,169.2667,28.41,82,100,5.74,VU,1670048994
529,stornoway,58.2093,-6.3865,9.98,89,75,5.66,GB,1670048994
530,saint-georges,12.0564,-61.7485,24.82,88,75,3.09,GD,1670048994
531,sapa,5.1544,120.3241,28.64,72,95,2.18,PH,1670048995
532,ouesso,1.6136,16.0517,22.43,93,95,0.64,CG,1670048995
533,saryozek,44.3583,77.9753,-4.33,76,7,1.1,KZ,1670048997
534,tsogni,-2.7942,10.0988,24.36,86,100,0.86,GA,1670048997
535,calvinia,-31.4707,19.776,12.9,44,0,2.06,ZA,1670048997
536,pedasi,7.5333,-80.0333,25.04,84,13,6.18,PA,1670048998
537,robstown,27.7903,-97.6689,19.41,100,100,0.0,US,1670048740
538,kargasok,59.0556,80.8572,-20.22,85,7,3.8,RU,1670048998
539,gorele,41.0308,39.0031,12.8,92,100,1.98,TR,1670048999
540,yanam,16.7333,82.2167,29.52,61,37,3.44,IN,1670048999
541,port-gentil,-0.7193,8.7815,24.98,100,40,0.51,GA,1670049000
542,mount isa,-20.7333,139.5,33.87,22,49,6.17,AU,1670049000
543,lazaro cardenas,17.9583,-102.2,23.93,84,7,1.86,MX,1670049001
544,phan thiet,10.9333,108.1,29.36,68,100,7.72,VN,1670049001
545,marsa matruh,31.3525,27.2453,18.78,74,100,3.54,EG,1670049003
546,key west,24.5557,-81.7826,27.0,68,0,5.66,US,1670049004
547,coffs harbour,-30.3,153.1333,21.98,60,40,5.66,AU,1670049005
548,corrente,-3.7367,-43.3394,21.82,93,62,1.24,BR,1670049006
549,kuryk,43.2,51.65,0.63,35,100,7.31,KZ,1670049008
550,gillette,44.2911,-105.5022,-12.16,77,0,5.14,US,1670048916
551,bentiu,9.2333,29.8333,31.0,18,5,4.51,SS,1670049009
552,onega,63.9061,38.1404,-7.63,83,100,2.51,RU,1670049009
553,deputatskiy,69.3,139.9,-24.44,89,100,10.77,RU,1670049010
554,capao da canoa,-29.7456,-50.0097,22.25,90,100,1.83,BR,1670049011
555,prilep,41.3464,21.5544,6.27,87,100,0.18,MK,1670049012
556,klaksvik,62.2266,-6.589,7.51,96,100,9.2,FO,1670049013
557,parana,-31.732,-60.5238,20.28,74,0,3.28,AR,1670048790
558,upata,8.0086,-62.3989,22.33,98,100,1.28,VE,1670049014
559,sisimiut,66.9395,-53.6735,-0.14,82,47,17.73,GL,1670049015
560,puerto quijarro,-17.7833,-57.7667,21.79,96,100,1.09,BO,1670049016
561,crewe,53.0979,-2.4416,5.45,90,30,1.34,GB,1670048781
562,soyo,-6.1349,12.3689,25.63,83,100,1.76,AO,1670049017
563,padang,-0.9492,100.3543,27.03,73,100,1.7,ID,1670048731
564,narsaq,60.9167,-46.05,0.12,99,100,3.36,GL,1670049018
565,shahr-e babak,30.1165,55.1186,13.03,36,0,4.92,IR,1670049019
566,bisceglie,41.242,16.5044,13.99,88,100,2.68,IT,1670049021
567,shaunavon,49.6501,-108.4181,-21.12,78,100,1.63,CA,1670049021
568,vestmannaeyjar,63.4427,-20.2734,4.94,76,3,5.31,IS,1670049024
569,nabire,-3.3667,135.4833,28.31,78,74,1.73,ID,1670049024
570,yaan,7.3833,8.5667,25.56,27,100,1.46,NG,1670049026
571,mananara,-16.1667,49.7667,29.12,59,24,2.32,MG,1670049027
572,erdenet,49.0333,104.0833,-18.2,78,17,1.49,MN,1670049028
573,madang,-5.2246,145.7966,27.64,85,100,2.21,PG,1670049029
574,muros,42.7762,-9.0603,3.24,93,0,3.61,ES,1670049029
575,burnie,-41.0667,145.9167,18.86,70,41,2.69,AU,1670049030
